{
    "success": "1",
    "postalcode": "V5C 6A7",
    "distance": "2000",
    "markers": [
        {
            "description":"Join the Selina Robinson for an
informal and interactive get together where you can both hear about her work and share ideas for helping make a BC that
works for everybody.\r\n\r\nTickets are $195\r\n\r\nGet your tickets online here!\r\n\r\n*Please note that
we...","title":"After Work with Selina
Robinson\r","link":"https:\/\/www.bcndp.ca\/events\/after-work-selina-robinson","date_start":"1571328000","date_end":"1571335200","date":"Oct
17,
            2019 4: 00 PM","display_date":"Thursday, Oct 17,
            2019 | 4: 00 PM - 6: 00
PM","latitude":"49.2876010000","longitude":"-123.1231714000","location":"Loden Hotel","address":"1177 Melville
St.","city":"Vancouver","postal_code":"V6E 0A3","twitter":null},
{
                "description":"Join MLA Janet Routledge for our third
annual women's clothes swap fundraiser. Bring five good quality wardrobe pieces (clean clothing or accessories in good
repair). For those of you not that into clothes you can include in your five...","title":"Burnaby North Clothes
Swap\r","link":"https:\/\/www.bcndp.ca\/events\/burnaby-north-clothes-swap","date_start":"1572094800","date_end":"1572105600","date":"Oct
26,
                2019 1: 00 PM","display_date":"Saturday, Oct 26,
                2019 | 1: 00 PM - 4: 00
PM","latitude":"49.2889428000","longitude":"-123.0212488000","location":"Private
residence","address":"TBC","city":"Burnaby","postal_code":"V5C 1S4","twitter":null},{"description":"Celebrate a decade
of public service and movement building for progressive change as our MLA for Vancouver-Kensington.\r\n\r\nDoors open at
5: 00 pm, dinner served at 6: 30 pm\r\n\r\nTickets are $100\r\n\r\nGet your tickets online here!\r\n\r\n*Please note that
we...","title":"Celebrate Mable's 10 Year
Anniversary\r","link":"https:\/\/www.bcndp.ca\/events\/celebrate-mables-10-year-anniversary","date_start":"1572195600","date_end":"1572208200","date":"Oct
27,
                2019 5: 00 PM","display_date":"Sunday, Oct 27,
                2019 | 5: 00 PM - 8: 30
PM","latitude":"49.2100593000","longitude":"-123.0907544000","location":"Fraserview Banquet Hall","address":"8240 Fraser
St","city":"Vancouver","postal_code":"V5X 3X6","twitter":null},{"description":"Spend an evening enjoying spirits and
appetizers with Lisa Beare among the talented and beautiful annual Christmas Classic showing of selected local artists
at the Maple Ridge Art Gallery.\r\n\r\nTickets are $100 each\r\n\r\nFriends of Lisa tickets are...","title":"Sparkle and
Shine with Lisa
Beare\r","link":"https:\/\/www.bcndp.ca\/events\/sparkle-and-shine-lisa-beare-0","date_start":"1573151400","date_end":"1573156800","date":"Nov
7,
                2019 6: 30 PM","display_date":"Thursday, Nov 7,
                2019 | 6: 30 PM - 8: 00
PM","latitude":"49.2191570000","longitude":"-122.5984586000","location":"The ACT Arts Centre","address":"11944 Haney
Pl","city":"Maple Ridge","postal_code":"V2X 6G1","twitter":null},{"description":"Come hear from Finance Minister Carole
James and Minister of Agriculture Lana Popham about the BC NDP Government's plan to empower farmers and make life more
affordable.\r\n\r\nLight appetizers will be provided\r\n\r\nCash...","title":"Saanich South Harvest
Fundraiser\r","link":"https:\/\/www.bcndp.ca\/events\/saanich-south-harvest-fundraiser","date_start":"1573758000","date_end":"1573765200","date":"Nov
14,
                2019 7: 00 PM","display_date":"Thursday, Nov 14,
                2019 | 7: 00 PM - 9: 00
PM","latitude":"48.5216986000","longitude":"-123.3668644000","location":"Beach House Restaurant","address":"5109 Cordova
Bay Rd","city":"Victoria","postal_code":"V8Y 2K1","twitter":null},{"description":"Join us for an evening of cocktails
and conversation in downtown Victoria. Hear from John Horgan and his team about their plans for the province and how
theyâ€™re putting people first. \r\n\r\nTickets:\r\n\r\nLeaders Circle $50\r\n\r\nConvention...","title":"John Horgan's
Victoria
Reception\r","link":"https:\/\/www.bcndp.ca\/events\/john-horgans-victoria-reception","date_start":"1574535600","date_end":"1574542800","date":"Nov
23,
                2019 7: 00 PM","display_date":"Saturday, Nov 23,
                2019 | 7: 00 PM - 9: 00
PM","latitude":"48.4205585000","longitude":"-123.3726817000","location":"Hotel Grand Pacific, Vancouver Island
Ballroom","address":"463 Belleville Street","city":"Victoria","postal_code":"V8V
1X3","twitter":null}],"position":null,"status":"success"}